District;Latitude;Longitude
Ciutat Vella;41.380218;2.17319
Eixample;41.388960;2.16179
Gràcia;41.402371;2.15641
Horta-Guinardó;41.418491;2.16770
Les Corts;41.383500;2.11680
Nou Barris;41.441631;2.17727
Sant Andreu;41.435409;2.18982
Sant Martí;41.418140;2.19933
Sants-Montjuïc;41.372631;2.15460
Sarrià-Sant Gervasi;41.401039;2.13940